time(millisecond),datetime(utc),latitude,longitude,height_above_takeoff(feet),height_above_ground_at_drone_location(feet),ground_elevation_at_drone_location(feet),altitude_above_seaLevel(feet),height_sonar(feet),speed(mph),distance(feet),mileage(feet),satellites,gpslevel,voltage(v),max_altitude(feet),max_ascent(feet),max_speed(mph),max_distance(feet), xSpeed(mph), ySpeed(mph), zSpeed(mph), compass_heading(degrees), pitch(degrees), roll(degrees),isPhoto,isVideo,rc_elevator,rc_aileron,rc_throttle,rc_rudder,rc_elevator(percent),rc_aileron(percent),rc_throttle(percent),rc_rudder(percent),gimbal_heading(degrees),gimbal_pitch(degrees),gimbal_roll(degrees),battery_percent,voltageCell1,voltageCell2,voltageCell3,voltageCell4,voltageCell5,voltageCell6,current(A),battery_temperature(f),altitude(feet),ascent(feet),flycStateRaw,flycState,message
0,2025-03-04 13:44:28,51.2586219089704,-0.0459372822516535,0,Available with any HD 360 subscription,Available with any HD 360 subscription,524.71127532094,0,0,0,0,22,5,0,524.71127532094,0,0,0,0,0,0,266.1, 4.4, -4.5,0,0,1024,1024,1024,1024,0,0,0,0,275.7,-90,0,99,4.137,4.149,4.157,0,0,0,0,70.7,524.71127532094,0,41,Motors_Started,
100,2025-03-04 13:44:28,51.2586218943855,-0.0459372843135841,0,,,524.71127532094,0,0,0.0053420933468,0.0053420933468,22,5,0,524.71127532094,0,0,0.0053420933468,0,0,0,266.1, 4.4, -4.5,0,0,1024,1024,1024,1024,0,0,0,0,275.7,-89.9,0,99,4.137,4.149,4.157,0,0,0,0,70.7,524.71127532094,0,41,Motors_Started,
200,2025-03-04 13:44:28,51.258621916642,-0.0459374282655443,0,,,524.71127532094,0,0,0.033456037816,0.039198163984,22,5,0,524.71127532094,0,0,0.033456037816,0,0,0,266.1, 4.4, -4.5,0,0,1024,1024,1024,1024,0,0,0,0,275.7,-89.9,0,99,4.137,4.149,4.157,0,0,0,0,70.7,524.71127532094,0,41,Motors_Started,"Aircraft in Altitude Zone (150 m). Fly with caution"
300,2025-03-04 13:44:28,51.2586219036119,-0.0459374445984433,0,,,524.71127532094,0,0,0.03711942376,0.045240158928,22,5,0,524.71127532094,0,0,0.03711942376,0,0,0,266.1, 4.4, -4.5,0,0,1024,1024,1024,1024,0,0,0,0,275.7,-89.9,0,99,4.137,4.149,4.157,0,0,0,0,70.7,524.71127532094,0,41,Motors_Started,
400,2025-03-04 13:44:28,51.2586219232984,-0.0459374175760085,0,,,524.71127532094,0,0,0.0313370416852,0.054708991252,22,5,0,524.71127532094,0,0,0.03711942376,0,0,0,266.1, 4.4, -4.5,0,0,1024,1024,1024,1024,0,0,0,0,275.7,-89.9,0,99,4.137,4.149,4.157,0,0,0,0,70.7,524.71127532094,0,41,Motors_Started,
500,2025-03-04 13:44:29,51.258621911352,-0.0459374306491728,0,,,524.71127532094,0,0,0.033894029956,0.05999179982,22,5,0,524.71127532094,0,0,0.03711942376,0,0,0,266.1, 4.4, -4.5,0,0,1024,1024,1024,1024,0,0,0,0,275.7,-89.9,0,99,4.137,4.149,4.157,0,0,0,0,70.7,524.71127532094,0,41,Motors_Started,
600,2025-03-04 13:44:29,51.2586219267979,-0.0459374090750302,0,,,524.71127532094,0,0,0.02967847864,0.067476708196,22,5,0,524.71127532094,0,0,0.03711942376,0,0,0,266.1, 4.4, -4.5,0,0,1024,1024,1024,1024,0,0,0,0,275.7,-89.9,0,99,4.137,4.149,4.157,0,0,0,0,70.7,524.71127532094,0,41,Motors_Started,
700,2025-03-04 13:44:29,51.2586219153784,-0.045937420194064,0,,,524.71127532094,0,0,0.031582350092,0.07235564536,22,5,0,524.71127532094,0,0,0.03711942376,0,0,0,266.1, 4.4, -4.4,0,0,1024,1024,1024,1024,0,0,0,0,275.7,-90,0,99,4.137,4.149,4.157,0,0,0,0,70.7,524.71127532094,0,41,Motors_Started,"Setting new Return-To-Home altitude to 110m (361 ft). Data Recorder File Index is 38. Setting new Maximum Flight Altitude to 120m (394 ft)"
800,2025-03-04 13:44:29,51.2586219278088,-0.0459374015990318,0,,,524.71127532094,0,0,0.0281034129728,0.0785679159,22,5,0,524.71127532094,0,0,0.03711942376,0,0,0,266.1, 4.4, -4.5,0,0,1024,1024,1024,1024,0,0,0,0,275.7,-89.9,0,99,4.137,4.149,4.157,0,0,0,0,70.7,524.71127532094,0,41,Motors_Started,
900,2025-03-04 13:44:29,51.2586219182097,-0.045937409251283,0,,,524.71127532094,0,0,0.0291924550024,0.08248195802,22,5,12.538,524.71127532094,0,0,0.03711942376,0,0,0,266.1, 4.3, -4.6,0,0,1024,1024,1024,1024,0,0,0,0,275.7,-89.9,0,99,4.137,4.149,4.157,0,0,0,2.286,70.7,524.71127532094,0,41,Motors_Started,
1000,2025-03-04 13:44:29,51.2586219306101,-0.0459373928602024,0,,,524.71127532094,0,0,0.0264600402168,0.088353349284,22,5,12.538,524.71127532094,0,0,0.03711942376,0,0,0,266.1, 4.2, -4.7,0,0,1024,1024,1024,1024,0,0,0,0,275.7,-89.9,0,99,4.137,4.149,4.157,0,0,0,2.286,70.7,524.71127532094,0,41,Motors_Started,
1100,2025-03-04 13:44:29,51.2586219198845,-0.0459373961986362,0,,,524.71127532094,0,0,0.0263199155404,0.092340226052,22,5,12.538,524.71127532094,0,0,0.03711942376,0,0,0,266.3, 4.4, -4.5,0,0,1024,1024,1024,1024,0,0,0,0,275.7,-90,0,99,4.137,4.149,4.157,0,0,0,2.286,70.7,524.71127532094,0,41,Motors_Started,
1200,2025-03-04 13:44:29,51.258621921328,-0.0459373795098237,0,,,524.71127532094,0,0,0.0226595479692,0.096187010952,22,5,12.538,524.71127532094,0,0,0.03711942376,0,0,0,266.6, 4.5, -4.5,0,0,1024,1024,1024,1024,0,0,0,0,275.7,-90,0,99,4.137,4.149,4.157,0,0,0,2.286,70.7,524.71127532094,0,41,Motors_Started,
1300,2025-03-04 13:44:29,51.2586219030893,-0.045937368671402,0,,,524.71127532094,0,0,0.019848097748,0.103286748712,22,5,12.538,524.71127532094,0,0,0.03711942376,0,0,0,266.9, 4.5, -4.4,0,0,1024,1024,1024,1024,0,0,0,0,275.7,-89.9,0,99,4.137,4.149,4.157,0,0,0,2.286,70.7,524.71127532094,0,41,Motors_Started,
1400,2025-03-04 13:44:29,51.2586219127912,-0.0459373503758386,0,,,524.71127532094,0,0,0.0156167984,0.108761814504,22,5,12.538,524.71127532094,0,0,0.03711942376,0,0,0,267, 4.5, -4.4,0,0,1024,1024,1024,1024,0,0,0,0,275.7,-90,0,99,4.137,4.149,4.157,0,0,0,2.286,70.7,524.71127532094,0,41,Motors_Started,
1500,2025-03-04 13:44:30,51.2586219035262,-0.0459373509867132,0,,,524.71127532094,0,0,0.0158191278028,0.112145016712,22,5,12.538,524.71127532094,0,0,0.03711942376,0,0,0,267, 4.5, -4.4,0,0,1024,1024,1024,1024,0,0,0,0,275.7,-90,0,99,4.137,4.149,4.157,0,0,0,2.286,70.7,524.71127532094,0,11,AutoTakeoff,
1600,2025-03-04 13:44:30,51.2586219232598,-0.0459373602645491,0,,,524.71127532094,0,0,0.0185595806464,0.119650266296,22,5,12.538,524.71127532094,0,0,0.03711942376,0,0,0,267, 4.5, -4.3,0,0,1024,1024,1024,1024,0,0,0,0,275.7,-89.9,0,99,4.137,4.149,4.157,0,0,0,2.286,70.7,524.71127532094,0,11,AutoTakeoff,
1700,2025-03-04 13:44:30,51.2586219157853,-0.0459373627765102,0,,,524.71127532094,0,0,0.0185531830084,0.122437011792,22,5,12.538,524.71127532094,0,0,0.03711942376,0,0,0,267, 4.4, -4.3,0,0,1024,1024,1024,1024,0,0,0,0,275.7,-89.9,0,99,4.137,4.149,4.157,0,0,0,2.286,70.7,524.71127532094,0,11,AutoTakeoff,
1800,2025-03-04 13:44:30,51.2586217783013,-0.0459373754150347,0,,,524.71127532094,0,0,0.05220472608,0.172680779804,22,5,12.538,524.71127532094,0,0,0.05220472608,0,0,0,267.2, 4.2, -4.2,0,0,1024,1024,1024,1024,0,0,0,0,275.8,-90,0,99,4.137,4.149,4.157,0,0,0,2.286,70.7,524.71127532094,0,11,AutoTakeoff,
1900,2025-03-04 13:44:30,51.2586217463557,-0.0459373566095136,0,,,524.71127532094,0,0,0.061711288064,0.18510171196,22,5,12.406,524.71127532094,0,0,0.061711288064,0,0,0,267, 2.9, -4,0,0,1024,1024,1024,1024,0,0,0,0,275.8,-89.9,0,99,4.187,4.205,4.217,0,0,0,3.913,70.7,524.71127532094,0,11,AutoTakeoff,
2000,2025-03-04 13:44:30,51.2586217457175,-0.0459373263068142,0,,,524.71127532094,0,0,0.060406169912,0.192024612444,22,5,12.406,524.71127532094,0,0,0.061711288064,0,0,0,266.7, -0.7, -3.4,0,0,1024,1024,1024,1024,0,0,0,0,275.8,-89.9,0,99,4.187,4.205,4.217,0,0,0,3.913,70.7,524.71127532094,0,11,AutoTakeoff,
2100,2025-03-04 13:44:30,51.2586216700471,-0.0459373177784845,0,,,524.71127532094,0,0.223694,0.08754757498,0.2197014506,22,5,12.406,524.71127532094,0,0.223694,0.08754757498,-0.223694,0,-0.223694,266.8, -3.5, -1.7,0,0,1024,1024,1024,1024,0,0,0,0,275.8,-89.9,0,99,4.187,4.205,4.217,0,0,0,3.913,70.7,524.71127532094,0,11,AutoTakeoff,
2200,2025-03-04 13:44:30,51.2586216211779,-0.0459373632522788,0,,,524.71127532094,0,0.223694,0.106617129396,0.240334325276,22,5,12.406,524.71127532094,0,0.223694,0.106617129396,-0.223694,0,-0.447388,267, -1.6, 0.4,0,0,1024,1024,1024,1024,0,0,0,0,275.8,-90,0,99,4.187,4.205,4.217,0,0,0,3.913,70.7,524.71127532094,0,11,AutoTakeoff,
2300,2025-03-04 13:44:30,51.2586215311496,-0.0459374456183661,0,,,524.71127532094,0,0.223694,0.14280512268,0.278183735936,22,5,12.406,524.71127532094,0,0.223694,0.14280512268,-0.223694,0,-0.671082,266.8, -0.6, 1.3,0,0,1024,1024,1024,1024,0,0,0,0,275.8,-90,0,99,4.187,4.205,4.217,0,0,0,3.913,70.7,524.71127532094,0,11,AutoTakeoff,
2400,2025-03-04 13:44:30,51.2586214451991,-0.0459375676625112,0.328084,,,525.03935932094,0,0,0.181321856196,0.32013452468,22,5,12.406,525.03935932094,0.328084,0.223694,0.181321856196,0,0,-0.894776,266.6, 0.6, 0.8,0,0,1024,1024,1024,1024,0,0,0,0,275.8,-90,0,99,4.187,4.205,4.217,0,0,0,3.913,70.7,525.03935932094,0.328084,11,AutoTakeoff,
2500,2025-03-04 13:44:31,51.2586214148213,-0.0459376476876993,0.328084,,,525.03935932094,0,0,0.19866142368,0.34150591644,22,5,12.406,525.03935932094,0.328084,0.223694,0.19866142368,0,0,-0.894776,266.5, 1, 0.9,0,0,1024,1024,1024,1024,0,0,0,0,275.8,-90,0,99,4.187,4.205,4.217,0,0,0,3.913,70.7,525.03935932094,0.328084,11,AutoTakeoff,
2600,2025-03-04 13:44:31,51.2586215326703,-0.0459374299681541,0.328084,,,525.03935932094,0.656168,0,0.141375004524,0.40723098416,22,5,12.406,525.03935932094,0.328084,0.223694,0.19866142368,0,0,-0.894776,266.5, 0.5, 0.3,0,0,1024,1024,1024,1024,0,0,0,0,275.8,-89.9,0,99,4.187,4.205,4.217,0,0,0,3.913,70.7,525.03935932094,0.328084,11,AutoTakeoff,
2700,2025-03-04 13:44:31,51.2586215815823,-0.0459374187891929,0.656168,,,525.36744332094,0.984252,0,0.123448494764,0.42525919996,22,5,12.406,525.36744332094,0.656168,0.223694,0.19866142368,0,0,-0.894776,266.4, 0, -0.3,0,0,1024,1024,1242,1024,0,0,33,0,275.8,-90,0,99,4.187,4.205,4.217,0,0,0,3.913,70.7,525.36744332094,0.656168,11,AutoTakeoff,
2800,2025-03-04 13:44:31,51.2586213730155,-0.0459371847247823,0.656168,,,525.36744332094,0.984252,0,0.196806764828,0.51824476724,22,5,12.406,525.36744332094,0.656168,0.223694,0.19866142368,0,0,-0.894776,266.5, -0.6, -1,0,0,1024,1024,1287,1024,0,0,40,0,275.8,-89.9,0,99,4.187,4.205,4.217,0,0,0,3.913,70.7,525.36744332094,0.656168,11,AutoTakeoff,
2900,2025-03-04 13:44:31,51.25862143847,-0.0459371190663445,0.984252,,,525.69552732094,1.312336,0,0.175658798272,0.54644358704,22,5,12.133,525.69552732094,0.984252,0.223694,0.19866142368,0,0,-1.342164,266.6, -1, -1.1,0,0,1024,1024,1288,1024,0,0,40,0,275.8,-89.9,0,99,4.024,4.04,4.052,0,0,0,4.991,70.7,525.69552732094,0.984252,11,AutoTakeoff,
3000,2025-03-04 13:44:31,51.2586214052566,-0.0459373055865162,1.312336,,,526.02361132094,1.64042,0,0.183856961264,0.59071852284,22,5,12.133,526.02361132094,1.312336,0.223694,0.19866142368,0,0,-1.789552,266.6, -0.8, -1.3,0,0,1024,1024,1362,1024,0,0,51,0,275.8,-89.9,0,99,4.024,4.04,4.052,0,0,0,4.991,70.7,526.02361132094,1.312336,11,AutoTakeoff,
3100,2025-03-04 13:44:31,51.2586214724287,-0.0459372469010215,1.64042,,,526.35169532094,1.968504,0,0.159476383056,0.6186515946,22,5,12.133,526.35169532094,1.64042,0.223694,0.19866142368,0,0,-2.23694,266.6, -1, -1.5,0,0,1024,718,1024,1024,0,-46,0,0,275.8,-89.9,0,99,4.024,4.04,4.052,0,0,0,4.991,70.7,526.35169532094,1.64042,11,AutoTakeoff,
3200,2025-03-04 13:44:31,51.2586215711138,-0.0459374094993526,1.968504,,,526.67977932094,2.296588,0,0.126644361008,0.67036747552,22,5,12.133,526.67977932094,1.968504,0.223694,0.19866142368,0,0,-3.131716,266.6, -0.6, -1.8,0,0,1024,718,1024,1024,0,-46,0,0,275.8,-90,0,99,4.024,4.04,4.052,0,0,0,4.991,70.7,526.67977932094,1.968504,11,AutoTakeoff,
3300,2025-03-04 13:44:31,51.2586216309527,-0.0459373414863779,2.296588,,,527.00786332094,2.624672,0,0.102332352356,0.69715881496,22,5,12.133,527.00786332094,2.296588,0.223694,0.19866142368,0,0,-3.131716,266.7, -0.6, -5,0,0,1044,443,1024,1024,3,-88,0,0,275.8,-90,0,99,4.024,4.04,4.052,0,0,0,4.991,70.7,527.00786332094,2.296588,11,AutoTakeoff,
3400,2025-03-04 13:44:31,51.2586216122042,-0.0459368926250869,2.952756,,,527.66403132094,3.28084,0,0.140134190836,0.79987535368,22,5,12.133,527.66403132094,2.952756,0.223694,0.19866142368,0,0,-2.908022,266.7, -0.9, -17.3,0,0,1024,982,1024,1024,0,-6,0,0,275.8,-90,0,99,4.024,4.04,4.052,0,0,0,4.991,70.7,527.66403132094,2.952756,11,AutoTakeoff,
3500,2025-03-04 13:44:32,51.2586214708436,-0.0459367526566445,3.28084,,,527.99211532094,3.608924,0.447388,0.200433733448,0.8605479278,22,5,12.133,527.99211532094,3.28084,0.447388,0.200433733448,-0.447388,0,-2.23694,266.6, -1.1, -19.4,0,0,1024,1024,1024,1024,0,0,0,0,275.8,-90,0,99,4.024,4.04,4.052,0,0,0,4.991,70.7,527.99211532094,3.28084,11,AutoTakeoff,
3600,2025-03-04 13:44:32,51.2586213763304,-0.0459366780095609,3.608924,,,528.32019932094,3.608924,0.894776,0.238326123112,0.89901249596,22,5,12.133,528.32019932094,3.608924,0.894776,0.238326123112,-0.894776,0,-1.789552,266.7, -1.2, -5.9,0,0,1131,1024,1024,1024,16,0,0,0,275.8,-90,0,99,4.024,4.04,4.052,0,0,0,4.991,70.7,528.32019932094,3.608924,6,P-GPS,
3700,2025-03-04 13:44:32,51.2586209549518,-0.0459365124509559,3.608924,,,528.32019932094,3.937008,0.894776,0.38993439568,1.057332711,22,5,12.133,528.32019932094,3.608924,0.894776,0.38993439568,-0.894776,0,-1.11847,265.8, -1, -0.1,0,0,1188,1024,1024,1024,25,0,0,0,275.8,-90,0,99,4.024,4.04,4.052,0,0,0,4.991,70.7,528.32019932094,3.608924,6,P-GPS,
3800,2025-03-04 13:44:32,51.258620511685,-0.0459362232328726,3.937008,,,528.64828332094,3.937008,0.894776,0.56423558236,1.2320210368,22,5,12.133,528.64828332094,3.937008,0.894776,0.56423558236,-0.894776,0,-0.671082,265.9, -2.2, 0,0,0,1184,1024,1025,1024,24,0,0,0,275.8,-89.9,0,99,4.024,4.04,4.052,0,0,0,4.991,70.7,528.64828332094,3.937008,6,P-GPS,
3900,2025-03-04 13:44:32,51.2586201255031,-0.045936058656479,3.937008,,,528.64828332094,4.265092,0.894776,0.7081365056,1.37784453228,22,5,11.922,528.64828332094,3.937008,0.894776,0.7081365056,-0.894776,0,-0.223694,266.3, -3.6, 0,0,0,1024,1024,1232,1024,0,0,32,0,275.8,-90,0,99,4.023,4.045,4.056,0,0,0,7.965,70.88,528.64828332094,3.937008,6,P-GPS,
4000,2025-03-04 13:44:32,51.2586203189111,-0.0459359782497319,3.937008,,,528.64828332094,4.265092,0.671082,0.65207351168,1.45075792044,22,5,11.922,528.64828332094,3.937008,0.894776,0.7081365056,-0.671082,0,0,266.4, -3, -0.3,0,0,1024,1024,1230,1024,0,0,31,0,275.8,-90,0,99,4.023,4.045,4.056,0,0,0,7.965,70.88,528.64828332094,3.937008,6,P-GPS,
4100,2025-03-04 13:44:32,51.2586200348066,-0.0459359087532403,3.937008,,,528.64828332094,4.265092,0.671082,0.75227036528,1.55562012852,22,5,11.922,528.64828332094,3.937008,0.894776,0.75227036528,-0.671082,0,-0.223694,266.6, -1.6, 0.9,0,0,1024,1024,1230,1024,0,0,31,0,275.8,-90,0,99,4.023,4.045,4.056,0,0,0,7.965,70.88,528.64828332094,3.937008,6,P-GPS,
4200,2025-03-04 13:44:32,51.2586196837314,-0.0459359172935798,4.265092,,,528.97636732094,4.593176,0.447388,0.86963913544,1.68372380716,22,5,11.922,528.97636732094,4.265092,0.894776,0.86963913544,-0.447388,0,-0.671082,266.8, -1, 1.3,0,0,1024,1024,1291,1024,0,0,40,0,275.8,-89.9,0,99,4.023,4.045,4.056,0,0,0,7.965,70.88,528.97636732094,4.265092,6,P-GPS,
4300,2025-03-04 13:44:32,51.258619488503,-0.0459358645029738,4.593176,,,529.30445132094,4.593176,0.223694,0.94056433456,1.75596790396,22,5,11.922,529.30445132094,4.593176,0.894776,0.94056433456,-0.223694,0,-1.11847,267.1, -1, 1.1,0,0,1024,1024,1165,1024,0,0,21,0,275.8,-89.9,0,99,4.023,4.045,4.056,0,0,0,7.965,70.88,529.30445132094,4.593176,6,P-GPS,
4400,2025-03-04 13:44:32,51.2586192644646,-0.0459358611302932,4.92126,,,529.63253532094,4.92126,0.223694,1.0179462268,1.83771003256,22,5,11.922,529.63253532094,4.92126,0.894776,1.0179462268,-0.223694,0,-1.565858,267.3, -1.2, 0.8,0,0,1024,1024,1024,1024,0,0,0,0,275.8,-90,0,99,4.023,4.045,4.056,0,0,0,7.965,70.88,529.63253532094,4.92126,6,P-GPS,
4500,2025-03-04 13:44:33,51.2586191534477,-0.045935806092949,5.249344,,,529.96061932094,5.249344,0,1.06034452212,1.8801181704,22,5,11.922,529.96061932094,5.249344,0.894776,1.06034452212,0,0,-1.342164,267.3, -0.9, 0.4,0,0,1146,1024,1024,1024,18,0,0,0,275.8,-90,0,99,4.023,4.045,4.056,0,0,0,7.965,70.88,529.96061932094,5.249344,6,P-GPS,
4600,2025-03-04 13:44:33,51.2586189368752,-0.0459354331535703,5.249344,,,529.96061932094,5.249344,0,1.16365817372,1.99628615312,22,5,11.922,529.96061932094,5.249344,0.894776,1.16365817372,0,0,-0.894776,267.2, -0.9, 0.3,0,0,1283,1024,1024,1024,39,0,0,0,275.8,-90,0,99,4.023,4.045,4.056,0,0,0,7.965,70.88,529.96061932094,5.249344,6,P-GPS,
4700,2025-03-04 13:44:33,51.2586188617059,-0.0459353250227617,5.249344,,,529.96061932094,5.249344,0,1.198244789,2.0331857606,22,5,11.922,529.96061932094,5.249344,0.894776,1.198244789,0,0,-0.447388,267.1, -2.8, 0,0,0,1352,1024,1024,1024,50,0,0,0,275.8,-90,0,99,4.023,4.045,4.056,0,0,0,7.965,70.88,529.96061932094,5.249344,6,P-GPS,
4800,2025-03-04 13:44:33,51.258618692859,-0.0459353046824145,5.249344,,,529.96061932094,5.249344,0,1.25727366228,2.0949639778,22,5,11.922,529.96061932094,5.249344,0.894776,1.25727366228,0,0,-0.223694,266.9, -6.3, -0.1,0,0,1523,1024,1024,1024,76,0,0,0,275.8,-90,0,99,4.023,4.045,4.056,0,0,0,7.965,70.88,529.96061932094,5.249344,6,P-GPS,
4900,2025-03-04 13:44:33,51.2586186424992,-0.045935326408992,5.577428,,,530.28870332094,5.249344,0,1.27269032944,2.11399613064,22,5,12.104,530.28870332094,5.577428,0.894776,1.27269032944,0,-0.223694,0,266.8, -10.9, -0.4,0,0,1523,1024,1024,1024,76,0,0,0,275.8,-90,0,99,4.048,4.078,4.075,0,0,0,6.352,70.88,530.28870332094,5.577428,6,P-GPS,
5000,2025-03-04 13:44:33,51.2586184908885,-0.0459355368255979,5.577428,,,530.28870332094,5.249344,0.447388,1.30921592116,2.18726056868,22,5,12.104,530.28870332094,5.577428,0.894776,1.30921592116,0,-0.447388,0,266.7, -18.3, -0.6,0,0,1566,1024,1024,1024,82,0,0,0,275.8,-89.9,0,99,4.048,4.078,4.075,0,0,0,6.352,70.88,530.28870332094,5.577428,6,P-GPS,
5100,2025-03-04 13:44:33,51.2586184431758,-0.0459361361724236,5.577428,,,530.28870332094,5.249344,1.342164,1.29128613056,2.32521004816,22,5,12.104,530.28870332094,5.577428,1.342164,1.30921592116,0,-1.342164,0,266.7, -24.6, -0.9,0,0,1572,1024,1024,1024,83,0,0,0,275.8,-90,0,99,4.048,4.078,4.075,0,0,0,6.352,70.88,530.28870332094,5.577428,6,P-GPS,
5200,2025-03-04 13:44:33,51.2586186230954,-0.0459374733335018,5.577428,,,530.28870332094,5.249344,2.23694,1.19964242684,2.63749680356,22,5,12.104,530.28870332094,5.577428,2.23694,1.30921592116,0,-2.23694,0,266.6, -27.3, -1.2,0,0,1563,1024,1024,1024,82,0,0,0,275.8,-90,0,99,4.048,4.078,4.075,0,0,0,6.352,70.88,530.28870332094,5.577428,6,P-GPS,
5300,2025-03-04 13:44:33,51.258618568752,-0.0459392710105181,5.249344,,,529.96061932094,5.249344,3.131716,1.300524976,3.04842857524,22,5,12.104,530.28870332094,5.577428,3.131716,1.30921592116,0,-3.131716,0,266.5, -27.4, -1.5,0,0,1563,1024,1024,1024,82,0,0,0,275.8,-89.9,0,99,4.048,4.078,4.075,0,0,0,6.352,70.88,529.96061932094,5.249344,6,P-GPS,
5400,2025-03-04 13:44:33,51.2586184354699,-0.0459412792646975,5.249344,,,529.96061932094,5.249344,4.250186,1.56170936756,3.5095473564,22,5,12.104,530.28870332094,5.577428,4.250186,1.56170936756,0,-4.250186,0,266.5, -27.2, -1.7,0,0,1543,1024,1024,1024,79,0,0,0,275.8,-90,0,99,4.048,4.078,4.075,0,0,0,6.352,70.88,529.96061932094,5.249344,6,P-GPS,
5500,2025-03-04 13:44:34,51.2586183129478,-0.0459443311748238,5.249344,,,529.96061932094,5.249344,5.144962,2.07645675936,4.2078085336,22,5,12.104,530.28870332094,5.577428,5.144962,2.07645675936,-0.223694,-5.144962,0,266.2, -26.5, -1.4,0,0,1527,1024,1024,1024,76,0,0,0,275.8,-90,0,99,4.048,4.078,4.075,0,0,0,6.352,70.88,529.96061932094,5.249344,6,P-GPS,
5600,2025-03-04 13:44:34,51.2586182784879,-0.0459471398795846,5.249344,,,529.96061932094,5.249344,6.039738,2.6115814484,4.8492127536,22,5,12.104,530.28870332094,5.577428,6.039738,2.6115814484,-0.223694,-6.039738,0,266.1, -25.9, -1.3,0,0,1393,1024,993,784,56,0,-5,-36,275.8,-90,0,99,4.048,4.078,4.075,0,0,0,6.352,70.88,529.96061932094,5.249344,6,P-GPS,
5700,2025-03-04 13:44:34,51.258618111577,-0.045951279928596,5.249344,,,529.96061932094,5.249344,6.934514,3.4833990616,5.7964568784,22,5,12.104,530.28870332094,5.577428,6.934514,3.4833990616,-0.223694,-6.934514,0,266.2, -23.4, -1.4,0,0,1394,1024,963,584,56,0,-9,-67,275.8,-90,0,99,4.048,4.078,4.075,0,0,0,6.352,70.88,529.96061932094,5.249344,6,P-GPS,
5800,2025-03-04 13:44:34,51.2586180012325,-0.0459547881706639,5.249344,,,529.96061932094,5.249344,7.6279654,4.2437009232,6.5984910248,22,5,12.104,530.28870332094,5.577428,7.6279654,4.2437009232,-0.447388,-7.605596,0,266.7, -17.7, -9.7,0,0,1394,1024,963,584,56,0,-9,-67,275.5,-89.9,0,99,4.048,4.078,4.075,0,0,0,6.352,70.88,529.96061932094,5.249344,6,P-GPS,
5900,2025-03-04 13:44:34,51.2586177121634,-0.0459596308266291,5.249344,,,529.96061932094,5.249344,8.0753534,5.3275264172,7.7091865984,22,5,12.076,530.28870332094,5.577428,8.0753534,5.3275264172,-0.671082,-8.052984,0,265, -14.9, -13.2,0,0,1265,1024,896,553,37,0,-19,-71,274,-90,0,99,3.964,3.982,3.995,0,0,0,6.688,70.88,529.96061932094,5.249344,6,P-GPS,
6000,2025-03-04 13:44:34,51.2586173297249,-0.0459642622858829,4.92126,,,529.63253532094,5.249344,8.3437862,6.3827757948,8.7758532992,22,5,12.076,530.28870332094,5.577428,8.3437862,6.3827757948,-1.11847,-8.276678,0,262.5, -11.6, -15,0,0,1076,1024,896,524,8,0,-19,-76,271.7,-90,0,99,3.964,3.982,3.995,0,0,0,6.688,70.88,529.63253532094,4.92126,6,P-GPS,"Home Point updated. RTH altitude adjusted to 110 m (Code: 120852)"
6100,2025-03-04 13:44:34,51.2586166706094,-0.0459693145229286,4.92126,,,529.63253532094,4.92126,8.4780026,7.5593506356,9.9541997936,22,5,12.076,530.28870332094,5.577428,8.4780026,7.5593506356,-1.789552,-8.276678,0.223694,258.8, -4.6, -17.5,0,0,1067,1024,892,405,7,0,-20,-94,268.8,-90,0,99,3.964,3.982,3.995,0,0,0,6.688,70.88,529.63253532094,4.92126,6,P-GPS,
6200,2025-03-04 13:44:34,51.2586157864272,-0.0459737482211912,4.92126,,,529.63253532094,4.92126,8.3661556,8.6205383336,11.0166670192,22,5,12.076,530.28870332094,5.577428,8.4780026,8.6205383336,-2.23694,-8.052984,0.223694,254.2, 0.9, -24.1,0,0,1069,1024,883,393,7,0,-21,-96,265.1,-90,0,99,3.964,3.982,3.995,0,0,0,6.688,70.88,529.63253532094,4.92126,6,P-GPS,
6300,2025-03-04 13:44:34,51.2586146149666,-0.0459783761344526,4.92126,,,529.63253532094,4.593176,8.0082452,9.7528546428,12.156496452,22,5,12.076,530.28870332094,5.577428,8.4780026,9.7528546428,-3.131716,-7.381902,0.447388,249.2, 4.6, -23.6,0,0,1024,1024,912,393,0,0,-17,-96,260.4,-90,0,99,3.964,3.982,3.995,0,0,0,6.688,70.88,529.63253532094,4.92126,6,P-GPS,
6400,2025-03-04 13:44:34,51.2586135531694,-0.0459826380674824,4.92126,,,529.63253532094,4.265092,7.717443,10.795275936,13.203904622,22,5,12.076,530.28870332094,5.577428,8.4780026,10.795275936,-3.802798,-6.71082,0.447388,244.2, 6.6, -21.8,0,0,1062,1024,1003,364,6,0,-3,-100,255.2,-90,0,99,3.964,3.982,3.995,0,0,0,6.688,70.88,529.63253532094,4.92126,6,P-GPS,
6500,2025-03-04 13:44:35,51.2586119141082,-0.045986324658049,4.593176,,,529.30445132094,4.265092,7.381902,11.7764439464,14.2364505868,22,5,12.076,530.28870332094,5.577428,8.4780026,11.7764439464,-4.250186,-6.039738,0.223694,240.4, 12.4, -7.8,0,0,1024,1024,1024,364,0,0,0,-100,249.8,-90,0,99,3.964,3.982,3.995,0,0,0,6.688,70.88,529.30445132094,4.593176,6,P-GPS,
6600,2025-03-04 13:44:35,51.2586107461431,-0.045991298968897,4.593176,,,529.30445132094,4.265092,6.5318648,12.9884190508,15.4495083684,22,5,12.076,530.28870332094,5.577428,8.4780026,12.9884190508,-4.026492,-5.144962,0,232.6, 18.4, -13.7,0,0,1024,1024,1024,431,0,0,0,-90,244.3,-89.9,0,99,3.964,3.982,3.995,0,0,0,6.688,70.88,529.30445132094,4.593176,6,P-GPS,
6700,2025-03-04 13:44:35,51.2586092145909,-0.0459939562427123,4.593176,,,529.30445132094,4.265092,5.5476112,13.7439965028,16.2743443528,22,5,12.076,530.28870332094,5.577428,8.4780026,13.7439965028,-3.802798,-4.026492,0,228.1, 19.9, -12.7,0,0,1024,1024,1024,431,0,0,0,-90,238.5,-90,0,99,3.964,3.982,3.995,0,0,0,6.688,70.88,529.30445132094,4.593176,6,P-GPS,
6800,2025-03-04 13:44:35,51.25860799182,-0.0459975881449395,4.593176,,,529.30445132094,4.265092,4.585727,14.6757550628,17.2159782412,22,5,12.076,530.28870332094,5.577428,8.4780026,14.6757550628,-3.35541,-3.131716,0,224.8, 19.5, 2.1,0,0,1024,1024,1024,365,0,0,0,-100,233.1,-90,0,99,3.964,3.982,3.995,0,0,0,6.688,70.88,529.30445132094,4.593176,6,P-GPS,
6900,2025-03-04 13:44:35,51.2586068512517,-0.0459992587306601,4.593176,,,529.30445132094,4.265092,4.585727,15.179790512,17.7804795716,22,5,12.056,530.28870332094,5.577428,8.4780026,15.179790512,-2.460634,-2.684328,0,220.4, 18.3, -1.5,0,0,1024,1024,1024,392,0,0,0,-96,227.5,-89.9,0,99,3.939,3.975,3.992,0,0,0,7.321,70.88,529.30445132094,4.593176,6,P-GPS,
7000,2025-03-04 13:44:35,51.258605690076,-0.0460024833321821,4.593176,,,529.30445132094,4.593176,2.8409138,16.0199808276,18.629921856,22,5,12.056,530.28870332094,5.577428,8.4780026,16.0199808276,-2.013246,-2.013246,0,214.9, 14.3, -3.9,0,0,1024,1024,1024,364,0,0,0,-100,221.8,-90,0,99,3.939,3.975,3.992,0,0,0,7.321,70.88,529.30445132094,4.593176,6,P-GPS,
7100,2025-03-04 13:44:35,51.2586050067039,-0.0460036104370685,4.593176,,,529.30445132094,4.92126,2.2145706,16.3518049852,18.9882552008,22,5,12.056,530.28870332094,5.577428,8.4780026,16.3518049852,-1.565858,-1.565858,0,208.9, 10.5, -3.9,0,0,1024,1024,1024,364,0,0,0,-100,216.3,-90,0,99,3.939,3.975,3.992,0,0,0,7.321,70.88,529.30445132094,4.593176,6,P-GPS,
7200,2025-03-04 13:44:35,51.2586037921485,-0.046005657317804,4.593176,,,529.30445132094,4.92126,1.7448132,16.9533798076,19.6322840928,22,5,12.056,530.28870332094,5.577428,8.4780026,16.9533798076,-1.342164,-1.11847,0,202.9, 8.1, -4.3,0,0,1024,1024,1024,556,0,0,0,-71,210.6,-89.9,0,99,3.939,3.975,3.992,0,0,0,7.321,70.88,529.30445132094,4.593176,6,P-GPS,
7300,2025-03-04 13:44:35,51.2586033230187,-0.0460064092229974,4.593176,,,529.30445132094,4.92126,1.2750558,17.1784454316,19.8747053604,22,5,12.056,530.28870332094,5.577428,8.4780026,17.1784454316,-0.894776,-0.894776,0,197.6, 6.3, -3.9,0,0,1024,1024,1024,364,0,0,0,-100,204.9,-89.9,0,99,3.939,3.975,3.992,0,0,0,7.321,70.88,529.30445132094,4.593176,6,P-GPS,
7400,2025-03-04 13:44:35,51.2586019486624,-0.0460075525911733,4.593176,,,529.30445132094,4.92126,0.8052984,17.6198824536,20.4400269008,22,5,12.056,530.28870332094,5.577428,8.4780026,17.6198824536,-0.671082,-0.447388,0,192.5, 5.1, -3,0,0,1024,1024,1024,973,0,0,0,-8,200.4,-89.9,0,99,3.939,3.975,3.992,0,0,0,7.321,70.88,529.30445132094,4.593176,6,P-GPS,
7500,2025-03-04 13:44:36,51.2586015712275,-0.0460080645110665,4.593176,,,529.30445132094,4.92126,0.7158208,17.7833995192,20.6206699512,22,5,12.056,530.28870332094,5.577428,8.4780026,17.7833995192,-0.671082,-0.223694,0,187.5, 4, -2.3,0,0,1024,1024,1024,973,0,0,0,-8,195.7,-89.9,0,99,3.939,3.975,3.992,0,0,0,7.321,70.88,529.30445132094,4.593176,6,P-GPS,
7600,2025-03-04 13:44:36,51.2586011512154,-0.0460084205732903,4.593176,,,529.30445132094,4.92126,0.4921268,17.9215228832,20.794127962,22,5,12.056,530.28870332094,5.577428,8.4780026,17.9215228832,-0.447388,-0.223694,0,184.4, 3.1, -1.5,0,0,1122,1024,1024,1024,15,0,0,0,191.6,-89.9,0,99,3.939,3.975,3.992,0,0,0,7.321,70.88,529.30445132094,4.593176,6,P-GPS,
7700,2025-03-04 13:44:36,51.258600905957,-0.046008755389945,4.265092,,,528.97636732094,4.92126,0.223694,18.028707926,20.9118116928,22,5,12.056,530.28870332094,5.577428,8.4780026,18.028707926,-0.223694,0,0,181.7, 2, -0.8,0,0,1472,1007,1024,1024,68,-3,0,0,189.6,-89.9,0,99,3.939,3.975,3.992,0,0,0,7.321,70.88,528.97636732094,4.265092,6,P-GPS,
7800,2025-03-04 13:44:36,51.2586006826682,-0.0460087285111861,4.265092,,,528.97636732094,4.92126,0.223694,18.0579402104,20.9935046088,22,5,12.056,530.28870332094,5.577428,8.4780026,18.0579402104,-0.223694,0,0,180.3, -5.6, -0.3,0,0,1463,1008,1024,1024,67,-2,0,0,189.1,-90,0,99,3.939,3.975,3.992,0,0,0,7.321,70.88,528.97636732094,4.265092,6,P-GPS,
7900,2025-03-04 13:44:36,51.2586004299223,-0.0460089511039986,4.265092,,,528.97636732094,4.92126,0.447388,18.1435045176,21.0988195728,22,5,11.918,530.28870332094,5.577428,8.4780026,18.1435045176,-0.447388,0,0,179.8, -13.7, 0.2,0,0,1469,1024,1024,1024,67,0,0,0,189,-89.9,0,99,3.983,4.002,4.014,0,0,0,7.962,70.88,528.97636732094,4.265092,6,P-GPS,
8000,2025-03-04 13:44:36,51.2585999385229,-0.0460086870671349,4.265092,,,528.97636732094,4.92126,0.894776,18.1675202664,21.2879599988,22,5,11.918,530.28870332094,5.577428,8.4780026,18.1675202664,-0.894776,0,0,180.2, -15.9, 0.6,0,0,1449,1024,1024,1024,64,0,0,0,189,-89.9,0,99,3.983,4.002,4.014,0,0,0,7.962,70.88,528.97636732094,4.265092,6,P-GPS,
8100,2025-03-04 13:44:36,51.2585992827098,-0.0460088455261878,4.265092,,,528.97636732094,4.92126,1.565858,18.3066606908,21.5299547572,22,5,11.918,530.28870332094,5.577428,8.4780026,18.3066606908,-1.565858,0,0,180.5, -17.9, 0.7,0,0,1427,1024,1024,1024,61,0,0,0,189,-89.9,0,99,3.983,4.002,4.014,0,0,0,7.962,70.88,528.97636732094,4.265092,6,P-GPS,
8200,2025-03-04 13:44:36,51.2585986340585,-0.0460085131803495,4.265092,,,528.97636732094,4.593176,2.23694,18.34727749,21.7784783872,22,5,11.918,530.28870332094,5.577428,8.4780026,18.34727749,-2.23694,0,0,180.6, -18.4, 0.7,0,0,1427,1024,1024,1024,61,0,0,0,189,-90,0,99,3.983,4.002,4.014,0,0,0,7.962,70.88,528.97636732094,4.265092,6,P-GPS,
8300,2025-03-04 13:44:36,51.2585974891592,-0.0460086213316784,4.265092,,,528.97636732094,4.593176,2.908022,18.5659782844,22.1969167208,22,5,11.918,530.28870332094,5.577428,8.4780026,18.5659782844,-2.908022,0,0,180.7, -17.8, 1,0,0,1427,1024,1024,1024,61,0,0,0,189,-90,0,99,3.983,4.002,4.014,0,0,0,7.962,70.88,528.97636732094,4.265092,6,P-GPS,
8400,2025-03-04 13:44:36,51.2585965842412,-0.0460084680265878,4.265092,,,528.97636732094,4.593176,3.35541,18.6962276324,22.5289377288,22,5,11.918,530.28870332094,5.577428,8.4780026,18.6962276324,-3.35541,0,0,180.8, -17.6, 1.1,0,0,1431,1024,1024,1024,62,0,0,0,189,-90,0,99,3.983,4.002,4.014,0,0,0,7.962,70.88,528.97636732094,4.265092,6,P-GPS,
8500,2025-03-04 13:44:37,51.2585949980241,-0.0460085523108477,4.265092,,,528.97636732094,4.593176,4.026492,19.0053811856,23.1079731804,22,5,11.918,530.28870332094,5.577428,8.4780026,19.0053811856,-4.026492,0,0,181, -17.7, 1.3,0,0,1427,1024,1024,1024,61,0,0,0,189,-89.9,0,99,3.983,4.002,4.014,0,0,0,7.962,70.88,528.97636732094,4.265092,6,P-GPS,
8600,2025-03-04 13:44:37,51.2585939636449,-0.0460082092327134,4.265092,,,528.97636732094,4.92126,4.026492,19.1367132108,23.493439072,22,5,11.918,530.28870332094,5.577428,8.4780026,19.1367132108,-4.47388,0,0,181.1, -17.6, 1.3,0,0,1367,1024,1024,1024,52,0,0,0,189,-89.9,0,99,3.983,4.002,4.014,0,0,0,7.962,70.88,528.97636732094,4.265092,6,P-GPS,
8700,2025-03-04 13:44:37,51.2585920141427,-0.046008269745725,4.265092,,,528.97636732094,4.92126,4.921268,19.536417948,24.2048236092,22,5,11.918,530.28870332094,5.577428,8.4780026,19.536417948,-4.921268,0,0,181.2, -16, 1.1,0,0,1353,1024,1024,1024,50,0,0,0,189,-90,0,99,3.983,4.002,4.014,0,0,0,7.962,70.88,528.97636732094,4.265092,6,P-GPS,
8800,2025-03-04 13:44:37,51.2585902228819,-0.0460077231711261,4.265092,,,528.97636732094,4.92126,5.368656,19.8072184816,24.8701779612,22,5,11.918,530.28870332094,5.577428,8.4780026,19.8072184816,-5.368656,0,0,181.2, -14.2, 1,0,0,1301,1024,1024,1024,42,0,0,0,189,-90,0,99,3.983,4.002,4.014,0,0,0,7.962,70.88,528.97636732094,4.265092,6,P-GPS,
8900,2025-03-04 13:44:37,51.2585879730177,-0.046007729769307,4.265092,,,528.97636732094,4.92126,5.816044,20.2984586548,25.6910441292,22,5,11.958,530.28870332094,5.577428,8.4780026,20.2984586548,-5.816044,0,0,181.2, -12.8, 1.2,0,0,1305,1024,1024,1024,43,0,0,0,189,-89.9,0,99,3.972,3.991,4.003,0,0,0,6.953,71.06,528.97636732094,4.265092,6,P-GPS,
9000,2025-03-04 13:44:37,51.258585734496,-0.0460074184568999,4.265092,,,528.97636732094,5.249344,6.039738,20.751805126,26.5108604284,22,5,11.958,530.28870332094,5.577428,8.4780026,20.751805126,-6.039738,0,0,181.2, -10.5, 1.1,0,0,1279,1024,1024,1024,39,0,0,0,189,-89.9,0,99,3.972,3.991,4.003,0,0,0,6.953,71.06,528.97636732094,4.265092,6,P-GPS,
9100,2025-03-04 13:44:37,51.2585832925132,-0.0460073931798363,4.265092,,,528.97636732094,5.577428,6.263432,21.3251975328,27.4018381472,22,5,11.958,530.28870332094,5.577428,8.4780026,21.3251975328,-6.263432,0,0,181.3, -8.7, 1.2,0,0,1296,1024,1024,1024,41,0,0,0,189,-89.9,0,99,3.972,3.991,4.003,0,0,0,6.953,71.06,528.97636732094,4.265092,6,P-GPS,
9200,2025-03-04 13:44:37,51.2585809790771,-0.0460069627784353,4.265092,,,528.97636732094,5.577428,6.263432,21.8202762888,28.2515757072,22,5,11.958,530.28870332094,5.577428,8.4780026,21.8202762888,-6.263432,0,0,181.4, -7.1, 1.2,0,0,1296,1024,1024,1024,41,0,0,0,189,-90,0,99,3.972,3.991,4.003,0,0,0,6.953,71.06,528.97636732094,4.265092,6,P-GPS,
9300,2025-03-04 13:44:37,51.2585784691234,-0.0460069001778345,4.265092,,,528.97636732094,5.577428,6.487126,22.4467854952,29.1674550016,22,5,11.958,530.28870332094,5.577428,8.4780026,22.4467854952,-6.487126,0,0,181.4, -6.2, 1.3,0,0,1278,1024,1024,1024,38,0,0,0,189,-89.9,0,99,3.972,3.991,4.003,0,0,0,6.953,71.06,528.97636732094,4.265092,6,P-GPS,
9400,2025-03-04 13:44:37,51.2585760347822,-0.0460068549761767,4.265092,,,528.97636732094,5.905512,6.487126,23.0753616308,30.0556768148,22,5,11.958,530.28870332094,5.577428,8.4780026,23.0753616308,-6.487126,0,0,181.4, -5, 1.1,0,0,1216,1024,1024,1024,29,0,0,0,189,-89.9,0,99,3.972,3.991,4.003,0,0,0,6.953,71.06,528.97636732094,4.265092,6,P-GPS,
9500,2025-03-04 13:44:38,51.2585735321242,-0.0460067848875964,4.265092,,,528.97636732094,5.905512,6.487126,23.7352697884,30.9689314372,22,5,11.958,530.28870332094,5.577428,8.4780026,23.7352697884,-6.487126,0,0,181.5, -3.4, 1.2,0,0,1184,1024,1024,1024,24,0,0,0,189,-90,0,99,3.972,3.991,4.003,0,0,0,6.953,71.06,528.97636732094,4.265092,6,P-GPS,
9600,2025-03-04 13:44:38,51.2585704911916,-0.0460065844848938,4.265092,,,528.97636732094,5.905512,6.487126,24.541995536,32.0793317352,22,5,11.958,530.28870332094,5.577428,8.4780026,24.541995536,-6.487126,0,0,181.5, -3.4, 1.2,0,0,1236,1024,1024,1024,32,0,0,0,189,-90,0,99,3.972,3.991,4.003,0,0,0,6.953,71.06,528.97636732094,4.265092,6,P-GPS,
9700,2025-03-04 13:44:38,51.2585679970619,-0.0460064857106379,4.265092,,,528.97636732094,6.233596,6.263432,25.2302501512,32.989502368,22,5,11.958,530.28870332094,5.577428,8.4780026,25.2302501512,-6.263432,0,0,181.5, -1.7, 1.1,0,0,1198,1024,1024,1024,26,0,0,0,189,-90,0,99,3.972,3.991,4.003,0,0,0,6.953,71.06,528.97636732094,4.265092,6,P-GPS,
9800,2025-03-04 13:44:38,51.2585650590587,-0.0460062972038386,4.265092,,,528.97636732094,6.233596,6.263432,26.0485244556,34.062337048,22,5,11.958,530.28870332094,5.577428,8.4780026,26.0485244556,-6.263432,0,0,181.4, -1.1, 1.3,0,0,1183,1024,1024,1024,24,0,0,0,189,-89.9,0,99,3.972,3.991,4.003,0,0,0,6.953,71.06,528.97636732094,4.265092,6,P-GPS,
9900,2025-03-04 13:44:38,51.2585626235097,-0.0460061923173803,4.265092,,,528.97636732094,6.56168,6.039738,26.7474089924,34.951444688,22,5,12.004,530.28870332094,5.577428,8.4780026,26.7474089924,-6.039738,0,0,181.4, -0.3, 1.1,0,0,1193,1024,1024,1024,26,0,0,0,189,-89.9,0,99,3.994,4.01,4.02,0,0,0,6.819,71.06,528.97636732094,4.265092,6,P-GPS,
10000,2025-03-04 13:44:38,51.2585598462234,-0.0460060759388587,4.265092,,,528.97636732094,6.56168,6.039738,27.5581373648,35.964896164,22,5,12.004,530.28870332094,5.577428,8.4780026,27.5581373648,-6.039738,0,0,181.4, 0.7, 0.8,0,0,1193,1024,1024,1024,26,0,0,0,189,-90,0,99,3.994,4.01,4.02,0,0,0,6.819,71.06,528.97636732094,4.265092,6,P-GPS,
10100,2025-03-04 13:44:38,51.2585575155136,-0.046005972551361,4.265092,,,528.97636732094,6.889764,5.816044,28.2479011664,36.815617976,22,5,12.004,530.28870332094,5.577428,8.4780026,28.2479011664,-5.816044,0,0,181.3, 0.9, 1.3,0,0,1236,1024,1024,1024,32,0,0,0,189,-90,0,99,3.994,4.01,4.02,0,0,0,6.819,71.06,528.97636732094,4.265092,6,P-GPS,
10200,2025-03-04 13:44:38,51.2585549312414,-0.0460059269322141,4.265092,,,528.97636732094,6.889764,5.59235,29.031168908,37.758531392,22,5,12.004,530.28870332094,5.577428,8.4780026,29.031168908,-5.59235,0,0,181.3, 0.3, 0.8,0,0,1205,1024,1024,1024,27,0,0,0,189,-89.9,0,99,3.994,4.01,4.02,0,0,0,6.819,71.06,528.97636732094,4.265092,6,P-GPS,
10300,2025-03-04 13:44:38,51.2585527242013,-0.0460058643179448,4.265092,,,528.97636732094,6.889764,5.368656,29.7046269348,38.563977612,22,5,12.004,530.28870332094,5.577428,8.4780026,29.7046269348,-5.368656,0,0,181.2, 0.2, 0.1,0,0,1183,1024,1024,1024,24,0,0,0,189,-89.9,0,99,3.994,4.01,4.02,0,0,0,6.819,71.06,528.97636732094,4.265092,6,P-GPS,
10400,2025-03-04 13:44:38,51.2585503862298,-0.0460058141539642,4.265092,,,528.97636732094,7.217848,5.144962,30.4269038608,39.416996012,22,5,12.004,530.28870332094,5.577428,8.4780026,30.4269038608,-5.144962,0,0,181, 0.2, 0,0,0,1144,1024,1024,1024,18,0,0,0,189,-89.9,0,99,3.994,4.01,4.02,0,0,0,6.819,71.06,528.97636732094,4.265092,6,P-GPS,
10500,2025-03-04 13:44:39,51.2585482790969,-0.0460057568647611,4.265092,,,528.97636732094,7.217848,5.144962,31.082186034,40.186024908,22,5,12.004,530.28870332094,5.577428,8.4780026,31.082186034,-5.144962,0,0,180.8, 1.4, 0,0,0,1161,1024,1024,1024,21,0,0,0,189,-90,0,99,3.994,4.01,4.02,0,0,0,6.819,71.06,528.97636732094,4.265092,6,P-GPS,
10600,2025-03-04 13:44:39,51.2585459502231,-0.0460059606760731,4.265092,,,528.97636732094,7.217848,4.921268,31.8422910452,41.03674672,22,5,12.004,530.28870332094,5.577428,8.4780026,31.8422910452,-4.921268,0,0,180.6, 2.4, -0.2,0,0,1154,1024,1024,1024,20,0,0,0,189,-90,0,99,3.994,4.01,4.02,0,0,0,6.819,71.06,528.97636732094,4.265092,6,P-GPS,
10700,2025-03-04 13:44:39,51.258543961888,-0.0460059135373894,4.265092,,,528.97636732094,7.217848,4.697574,32.4704406716,41.762468528,22,5,12.004,530.28870332094,5.577428,8.4780026,32.4704406716,-4.697574,0,0,180.6, 2.5, -0.3,0,0,1185,1024,1024,1024,24,0,0,0,189,-89.9,0,99,3.994,4.01,4.02,0,0,0,6.819,71.06,528.97636732094,4.265092,6,P-GPS,
10800,2025-03-04 13:44:39,51.2585418860592,-0.0460059664528947,4.265092,,,528.97636732094,7.217848,4.697574,33.14140526,42.520014484,22,5,12.004,530.28870332094,5.577428,8.4780026,33.14140526,-4.47388,0,0,180.5, 2.3, -0.3,0,0,1259,1024,1024,1024,36,0,0,0,189,-89.9,0,99,3.994,4.01,4.02,0,0,0,6.819,71.06,528.97636732094,4.265092,6,P-GPS,
10900,2025-03-04 13:44:39,51.2585400483228,-0.0460058944204304,4.265092,,,528.97636732094,7.545932,4.250186,33.726050948,43.19061818,22,5,12.023,530.28870332094,5.577428,8.4780026,33.726050948,-4.250186,0,0,180.4, 1.3, -0.6,0,0,1259,1024,1024,1024,36,0,0,0,189,-89.9,0,99,3.984,4.001,4.013,0,0,0,6.422,71.24,528.97636732094,4.265092,6,P-GPS,
11000,2025-03-04 13:44:39,51.2585380769531,-0.0460060304702851,4.265092,,,528.97636732094,7.545932,4.026492,34.378938108,43.910434476,22,5,12.023,530.28870332094,5.577428,8.4780026,34.378938108,-4.026492,0,0,180.3, -0.2, -0.3,0,0,1269,1024,1024,1024,37,0,0,0,189,-89.9,0,99,3.984,4.001,4.013,0,0,0,6.422,71.24,528.97636732094,4.265092,6,P-GPS,
11100,2025-03-04 13:44:39,51.2585363281854,-0.0460059182942923,4.265092,,,528.97636732094,7.545932,4.026492,34.93602474,44.54888594,22,5,12.023,530.28870332094,5.577428,8.4780026,34.93602474,-4.026492,0,0,180.4, -1.7, 0,0,0,1266,1024,1024,1024,37,0,0,0,189,-89.9,0,99,3.984,4.001,4.013,0,0,0,6.422,71.24,528.97636732094,4.265092,6,P-GPS,
11200,2025-03-04 13:44:39,51.2585344245253,-0.0460060179788782,4.265092,,,528.97636732094,7.545932,4.026492,35.568242608,45.244095936,22,5,12.023,530.28870332094,5.577428,8.4780026,35.568242608,-4.026492,0,0,180.6, -2.3, 0.5,0,0,1281,1024,1024,1024,39,0,0,0,189,-89.9,0,99,3.984,4.001,4.013,0,0,0,6.422,71.24,528.97636732094,4.265092,6,P-GPS,
11300,2025-03-04 13:44:39,51.2585326744345,-0.0460058857688133,4.265092,,,528.97636732094,7.545932,4.026492,36.129266248,45.883203568,22,5,12.023,530.28870332094,5.577428,8.4780026,36.129266248,-4.026492,0,0,180.7, -1.3, 0.7,0,0,1261,1024,1024,1024,36,0,0,0,189,-90,0,99,3.984,4.001,4.013,0,0,0,6.422,71.24,528.97636732094,4.265092,6,P-GPS,
11400,2025-03-04 13:44:39,51.2585311281292,-0.0460059391429188,4.265092,,,528.97636732094,7.545932,4.026492,36.64370196,46.447508048,22,5,12.023,530.28870332094,5.577428,8.4780026,36.64370196,-4.026492,0,0,180.8, -2.5, 0.7,0,0,1269,1024,1024,1024,37,0,0,0,189,-89.9,0,99,3.984,4.001,4.013,0,0,0,6.422,71.24,528.97636732094,4.265092,6,P-GPS,
11500,2025-03-04 13:44:40,51.2585293898835,-0.0460058269943414,4.265092,,,528.97636732094,7.545932,4.026492,37.207022188,47.082350588,22,5,12.023,530.28870332094,5.577428,8.4780026,37.207022188,-4.026492,0,0,180.9, -2.9, 0.7,0,0,1255,1024,1024,1024,35,0,0,0,189,-89.9,0,99,3.984,4.001,4.013,0,0,0,6.422,71.24,528.97636732094,4.265092,6,P-GPS,
11600,2025-03-04 13:44:40,51.2585276088335,-0.0460058625451339,4.265092,,,528.97636732094,7.545932,4.026492,37.801182312,47.731956908,22,5,12.023,530.28870332094,5.577428,8.4780026,37.801182312,-4.026492,0,0,181, -2.9, 0.6,0,0,1215,1024,1024,1024,29,0,0,0,189,-90,0,99,3.984,4.001,4.013,0,0,0,6.422,71.24,528.97636732094,4.265092,6,P-GPS,
11700,2025-03-04 13:44:40,51.2585258339134,-0.0460057564608581,4.265092,,,528.97636732094,7.545932,4.026492,38.381562908,48.380250892,22,5,12.023,530.28870332094,5.577428,8.4780026,38.381562908,-4.026492,0,0,181.1, -2.5, 0.6,0,0,1215,1024,1024,1024,29,0,0,0,189,-90,0,99,3.984,4.001,4.013,0,0,0,6.422,71.24,528.97636732094,4.265092,6,P-GPS,
11800,2025-03-04 13:44:40,51.2585243053972,-0.0460057963716485,4.265092,,,528.97636732094,7.545932,4.026492,38.895014368,48.937993692,22,5,12.023,530.28870332094,5.577428,8.4780026,38.895014368,-4.026492,0,0,181, -1.9, 0.6,0,0,1163,1024,1024,1024,21,0,0,0,189,-90,0,99,3.984,4.001,4.013,0,0,0,6.422,71.24,528.97636732094,4.265092,6,P-GPS,
11900,2025-03-04 13:44:40,51.2585225423772,-0.0460056941545662,4.265092,,,528.97636732094,7.545932,4.026492,39.475723048,49.581366416,22,5,11.996,530.28870332094,5.577428,8.4780026,39.475723048,-4.026492,0,0,181.1, -1.4, 0.7,0,0,1154,1024,1024,1024,20,0,0,0,189,-90,0,99,3.978,3.999,4.012,0,0,0,6.644,71.06,528.97636732094,4.265092,6,P-GPS,
12000,2025-03-04 13:44:40,51.2585208979384,-0.0460058583562454,4.265092,,,528.97636732094,7.545932,4.026492,40.041996032,50.182744388,22,5,11.996,530.28870332094,5.577428,8.4780026,40.041996032,-4.026492,0,0,181.1, -2.1, 0.8,0,0,1024,1024,1024,1024,0,0,0,0,189,-90,0,99,3.978,3.999,4.012,0,0,0,6.644,71.06,528.97636732094,4.265092,6,P-GPS,
12100,2025-03-04 13:44:40,51.2585191713366,-0.0460057905400732,4.265092,,,528.97636732094,7.874016,4.026492,40.616471116,50.812665668,22,5,11.996,530.28870332094,5.577428,8.4780026,40.616471116,-4.026492,0,0,181.3, 8.3, 0.7,0,0,1072,1024,1024,1024,7,0,0,0,189,-90,0,99,3.978,3.999,4.012,0,0,0,6.644,71.06,528.97636732094,4.265092,6,P-GPS,
12200,2025-03-04 13:44:40,51.2585177333585,-0.0460056555031941,4.265092,,,528.97636732094,7.874016,3.579104,41.089568244,51.338256236,22,5,11.996,530.28870332094,5.577428,8.4780026,41.089568244,-3.579104,0,0,181.2, 9.9, 0.7,0,0,1068,1024,1024,1024,7,0,0,0,189,-89.9,0,99,3.978,3.999,4.012,0,0,0,6.644,71.06,528.97636732094,4.265092,6,P-GPS,
12300,2025-03-04 13:44:40,51.2585163402692,-0.0460055943810294,4.265092,,,528.97636732094,7.874016,3.131716,41.554791356,51.846786436,22,5,11.996,530.28870332094,5.577428,8.4780026,41.554791356,-3.131716,0,0,181.1, 7.1, 0.6,0,0,1096,1024,1024,1024,11,0,0,0,189,-90,0,99,3.978,3.999,4.012,0,0,0,6.644,71.06,528.97636732094,4.265092,6,P-GPS,
12400,2025-03-04 13:44:40,51.2585153240058,-0.0460056382000889,4.265092,,,528.97636732094,8.2021,2.684328,41.902560396,52.21784944,22,5,11.996,530.28870332094,5.577428,8.4780026,41.902560396,-2.684328,0,0,181, 5.1, 0.3,0,0,1144,1024,1024,1024,18,0,0,0,189,-89.9,0,99,3.978,3.999,4.012,0,0,0,6.644,71.06,528.97636732094,4.265092,6,P-GPS,
12500,2025-03-04 13:44:41,51.2585142073291,-0.0460055985493853,4.265092,,,528.97636732094,8.530184,2.460634,42.277560408,52.625329768,22,5,11.996,530.28870332094,5.577428,8.4780026,42.277560408,-2.460634,0,0,180.9, 3.9, 0.1,0,0,1144,1024,1024,1024,18,0,0,0,189,-90,0,99,3.978,3.999,4.012,0,0,0,6.644,71.06,528.97636732094,4.265092,6,P-GPS,
12600,2025-03-04 13:44:41,51.258512535241,-0.0460055721840236,4.265092,,,528.97636732094,8.530184,2.23694,42.843177224,53.235237924,22,5,11.996,530.28870332094,5.577428,8.4780026,42.843177224,-2.23694,0,0,180.8, 2.8, 0.3,0,0,1167,1024,1024,1024,22,0,0,0,189,-89.9,0,99,3.978,3.999,4.012,0,0,0,6.644,71.06,528.97636732094,4.265092,6,P-GPS,
12700,2025-03-04 13:44:41,51.2585115180963,-0.0460055204868428,4.265092,,,528.97636732094,8.530184,2.23694,43.184712668,53.606629012,22,5,11.996,530.28870332094,5.577428,8.4780026,43.184712668,-2.23694,0,0,180.8, 1.6, 0.3,0,0,1173,1024,1024,1024,23,0,0,0,189,-89.9,0,99,3.978,3.999,4.012,0,0,0,6.644,71.06,528.97636732094,4.265092,6,P-GPS,
12800,2025-03-04 13:44:41,51.2585106371066,-0.0460055955445873,4.265092,,,528.97636732094,8.530184,2.013246,43.49081504,53.928479416,22,5,11.996,530.28870332094,5.577428,8.4780026,43.49081504,-2.013246,0,0,180.8, 0.9, 0.3,0,0,1154,1024,1024,1024,20,0,0,0,189,-89.9,0,99,3.978,3.999,4.012,0,0,0,6.644,71.06,528.97636732094,4.265092,6,P-GPS,
12900,2025-03-04 13:44:41,51.2585097080102,-0.046005532745478,4.265092,,,528.97636732094,8.858268,2.013246,43.802166756,54.267718272,22,5,11.968,530.28870332094,5.577428,8.4780026,43.802166756,-2.013246,0,0,180.8, 0.4, 0.5,0,0,1219,1024,1024,1024,30,0,0,0,189,-89.9,0,99,3.97,3.987,4,0,0,0,6.696,71.42,528.97636732094,4.265092,6,P-GPS,
13000,2025-03-04 13:44:41,51.2585086962946,-0.0460055544496564,4.265092,,,528.97636732094,8.858268,2.013246,44.149279628,54.636812772,22,5,11.968,530.28870332094,5.577428,8.4780026,44.149279628,-2.013246,0,0,180.9, 0.6, 0.8,0,0,1055,1024,1024,1024,5,0,0,0,189,-89.9,0,99,3.97,3.987,4,0,0,0,6.696,71.42,528.97636732094,4.265092,6,P-GPS,
13100,2025-03-04 13:44:41,51.2585077964023,-0.0460054786800623,4.265092,,,528.97636732094,8.858268,1.789552,44.45046074,54.965881024,22,5,11.968,530.28870332094,5.577428,8.4780026,44.45046074,-1.789552,0,0,181, 1.7, 1.1,0,0,1072,1024,1024,1024,7,0,0,0,189,-90,0,99,3.97,3.987,4,0,0,0,6.696,71.42,528.97636732094,4.265092,6,P-GPS,
13200,2025-03-04 13:44:41,51.2585070950164,-0.0460055203156976,4.265092,,,528.97636732094,8.858268,1.789552,44.693570984,55.221786544,22,5,11.968,530.28870332094,5.577428,8.4780026,44.693570984,-1.789552,0,0,181.2, 3.5, 1.2,0,0,1271,1024,1024,1024,37,0,0,0,189,-89.9,0,99,3.97,3.987,4,0,0,0,6.696,71.42,528.97636732094,4.265092,6,P-GPS,
13300,2025-03-04 13:44:41,51.258506305581,-0.0460054595768267,4.265092,,,528.97636732094,8.858268,1.565858,44.958662856,55.51017238,22,5,11.968,530.28870332094,5.577428,8.4780026,44.958662856,-1.565858,0,0,181.3, 3.9, 0.9,0,0,1305,1023,1024,1024,43,-0,0,0,189,-89.9,0,99,3.97,3.987,4,0,0,0,6.696,71.42,528.97636732094,4.265092,6,P-GPS,
13400,2025-03-04 13:44:41,51.2585057552852,-0.0460055598226673,4.265092,,,528.97636732094,8.858268,1.342164,45.155185172,55.712272124,22,5,11.968,530.28870332094,5.577428,8.4780026,45.155185172,-1.342164,0,0,181.2, 0.1, 0.9,0,0,1305,1023,1024,1024,43,-0,0,0,189,-89.9,0,99,3.97,3.987,4,0,0,0,6.696,71.42,528.97636732094,4.265092,6,P-GPS,
13500,2025-03-04 13:44:42,51.258505069525,-0.04600551350534,4.265092,,,528.97636732094,8.858268,1.342164,45.386156308,55.962600216,22,5,11.968,530.28870332094,5.577428,8.4780026,45.386156308,-1.342164,0,0,181.2, -3.7, 1,0,0,1432,968,1024,1024,62,-8,0,0,189,-90,0,99,3.97,3.987,4,0,0,0,6.696,71.42,528.97636732094,4.265092,6,P-GPS,
13600,2025-03-04 13:44:42,51.2585044520634,-0.0460054716849143,4.265092,,,528.97636732094,8.858268,1.565858,45.594817732,56.188322008,22,5,11.968,530.28870332094,5.577428,8.4780026,45.594817732,-1.565858,0,0,181.2, -8.8, 0.9,0,0,1362,1024,1024,1024,51,0,0,0,189,-89.9,0,99,3.97,3.987,4,0,0,0,6.696,71.42,528.97636732094,4.265092,6,P-GPS,
13700,2025-03-04 13:44:42,51.2585036312413,-0.0460054422805694,4.265092,,,528.97636732094,8.858268,2.013246,45.874017216,56.4878627,22,5,11.968,530.28870332094,5.577428,8.4780026,45.874017216,-2.013246,0,0,181.2, -10.7, 0.8,0,0,1339,1024,1024,1024,48,0,0,0,189,-89.9,0,99,3.97,3.987,4,0,0,0,6.696,71.42,528.97636732094,4.265092,6,P-GPS,
13800,2025-03-04 13:44:42,51.2585025632311,-0.0460055619308254,4.265092,,,528.97636732094,8.858268,2.23694,46.25000148,56.87828266,22,5,11.968,530.28870332094,5.577428,8.4780026,46.25000148,-2.23694,0,0,181.2, -10.7, 0.7,0,0,1214,1024,1024,1024,29,0,0,0,189,-89.9,0,99,3.97,3.987,4,0,0,0,6.696,71.42,528.97636732094,4.265092,6,P-GPS,
13900,2025-03-04 13:44:42,51.2585014383889,-0.0460055644975529,4.265092,,,528.97636732094,8.858268,2.684328,46.636812516,57.288715744,22,5,11.971,530.28870332094,5.577428,8.4780026,46.636812516,-2.684328,0,0,181.2, -8.9, 0.7,0,0,1200,1024,1024,1024,27,0,0,0,189,-90,0,98,3.972,3.989,4.002,0,0,0,6.795,71.42,528.97636732094,4.265092,6,P-GPS,
14000,2025-03-04 13:44:42,51.2585006000842,-0.0460055108838982,3.937008,,,528.64828332094,8.858268,2.908022,46.92093326,57.594818116,22,5,11.971,530.28870332094,5.577428,8.4780026,46.92093326,-2.908022,0,0,181.2, -6.7, 0.7,0,0,1182,1024,1024,1024,24,0,0,0,189,-89.9,0,98,3.972,3.989,4.002,0,0,0,6.795,71.42,528.64828332094,3.937008,6,P-GPS,
14100,2025-03-04 13:44:42,51.2584993039,-0.046005529706524,4.265092,,,528.97636732094,8.858268,3.131716,47.36876792,58.067915244,22,5,11.971,530.28870332094,5.577428,8.4780026,47.36876792,-3.131716,0,0,181.2, -4, 0.5,0,0,1173,1024,1024,1024,23,0,0,0,189,-89.9,0,98,3.972,3.989,4.002,0,0,0,6.795,71.42,528.97636732094,4.265092,6,P-GPS,
14200,2025-03-04 13:44:42,51.2584981991362,-0.0460054461341073,4.265092,,,528.97636732094,8.858268,3.131716,47.743439848,58.47113048,22,5,11.971,530.28870332094,5.577428,8.4780026,47.743439848,-3.131716,0,0,181.1, -2, 0.2,0,0,1205,1024,1024,1024,27,0,0,0,189,-90,0,98,3.972,3.989,4.002,0,0,0,6.795,71.42,528.97636732094,4.265092,6,P-GPS,
14300,2025-03-04 13:44:42,51.2584968674899,-0.0460054683242616,4.265092,,,528.97636732094,8.858268,3.131716,48.204725952,58.957022884,22,5,11.971,530.28870332094,5.577428,8.4780026,48.204725952,-3.131716,0,0,181, -1.1, 0.3,0,0,1205,1024,1024,1024,27,0,0,0,189,-89.9,0,98,3.972,3.989,4.002,0,0,0,6.795,71.42,528.97636732094,4.265092,6,P-GPS,
14400,2025-03-04 13:44:42,51.2584957625377,-0.0460056475224301,4.265092,,,528.97636732094,9.186352,3.131716,48.599411004,59.362534708,22,5,11.971,530.28870332094,5.577428,8.4780026,48.599411004,-3.131716,0,0,180.9, -1.1, 0.2,0,0,1205,1024,1024,1024,27,0,0,0,189,-89.9,0,98,3.972,3.989,4.002,0,0,0,6.795,71.42,528.97636732094,4.265092,6,P-GPS,
14500,2025-03-04 13:44:43,51.2584944697546,-0.046005680102669,4.265092,,,528.97636732094,9.186352,3.131716,49.048886084,59.833991416,22,5,11.971,530.28870332094,5.577428,8.4780026,49.048886084,-3.131716,0,0,180.9, -1.7, 0.2,0,0,1024,1024,1024,1024,0,0,0,0,189,-89.9,0,98,3.972,3.989,4.002,0,0,0,6.795,71.42,528.97636732094,4.265092,6,P-GPS,
14600,2025-03-04 13:44:43,51.2584933041625,-0.0460053203442628,4.265092,,,528.97636732094,9.514436,3.131716,49.426182684,60.26739038,22,5,11.971,530.28870332094,5.577428,8.4780026,49.426182684,-3.131716,0,0,180.9, 1.1, 0.4,0,0,1174,1024,1024,1024,23,0,0,0,189,-90,0,98,3.972,3.989,4.002,0,0,0,6.795,71.42,528.97636732094,4.265092,6,P-GPS,
14700,2025-03-04 13:44:43,51.2584920687426,-0.0460053185646644,4.265092,,,528.97636732094,9.514436,2.908022,49.85400422,60.717849712,22,5,11.971,530.28870332094,5.577428,8.4780026,49.85400422,-2.908022,0,0,181, 2.9, 0.4,0,0,1176,1024,1024,1024,23,0,0,0,189,-89.9,0,98,3.972,3.989,4.002,0,0,0,6.795,71.42,528.97636732094,4.265092,6,P-GPS,
14800,2025-03-04 13:44:43,51.2584907446222,-0.0460056063248467,4.265092,,,528.97636732094,9.514436,2.684328,50.333663028,61.205382536,22,5,11.971,530.28870332094,5.577428,8.4780026,50.333663028,-2.684328,0,0,181, 1.8, 0.3,0,0,1254,1024,1024,1024,35,0,0,0,189,-90,0,98,3.972,3.989,4.002,0,0,0,6.795,71.42,528.97636732094,4.265092,6,P-GPS,
14900,2025-03-04 13:44:43,51.258489637763,-0.0460056214513961,4.265092,,,528.97636732094,9.84252,2.684328,50.718833644,61.60925394,22,5,11.959,530.28870332094,5.577428,8.4780026,50.718833644,-2.684328,0,0,180.9, 0.2, 0,0,0,1284,1024,1024,1024,39,0,0,0,189,-89.9,0,98,3.973,3.992,4.005,0,0,0,6.79,71.42,528.97636732094,4.265092,6,P-GPS,
15000,2025-03-04 13:44:43,51.2584883688479,-0.0460055506235695,4.265092,,,528.97636732094,9.84252,2.684328,51.15485728,62.072508548,22,5,11.959,530.28870332094,5.577428,8.4780026,51.15485728,-2.684328,0,0,180.9, -1.9, 0.2,0,0,1279,1024,1024,1024,39,0,0,0,189,-89.9,0,98,3.973,3.992,4.005,0,0,0,6.79,71.42,528.97636732094,4.265092,6,P-GPS,
15100,2025-03-04 13:44:43,51.2584872944021,-0.0460055320610335,4.265092,,,528.97636732094,9.84252,2.684328,51.526904536,62.464568928,22,5,11.959,530.28870332094,5.577428,8.4780026,51.526904536,-2.684328,0,0,180.9, -4.2, 0.5,0,0,1279,1024,1024,1024,39,0,0,0,189,-90,0,98,3.973,3.992,4.005,0,0,0,6.79,71.42,528.97636732094,4.265092,6,P-GPS,
15200,2025-03-04 13:44:43,51.2584859514689,-0.0460054590224283,4.265092,,,528.97636732094,10.170604,2.684328,51.989174892,62.955054508,22,5,11.959,530.28870332094,5.577428,8.4780026,51.989174892,-2.684328,0,0,181, -5.4, 0.6,0,0,1264,1024,1024,1024,36,0,0,0,189,-89.9,0,98,3.973,3.992,4.005,0,0,0,6.79,71.42,528.97636732094,4.265092,6,P-GPS,
15300,2025-03-04 13:44:43,51.2584847858382,-0.0460054191937664,4.265092,,,528.97636732094,10.170604,2.908022,52.392390128,63.380251372,22,5,11.959,530.28870332094,5.577428,8.4780026,52.392390128,-2.908022,0,0,181, -6.9, 0.6,0,0,1338,1024,1024,1024,48,0,0,0,189,-89.9,0,98,3.973,3.992,4.005,0,0,0,6.79,71.42,528.97636732094,4.265092,6,P-GPS,
15400,2025-03-04 13:44:43,51.2584833845867,-0.0460053898510091,4.265092,,,528.97636732094,9.84252,3.131716,52.8789387,63.891406244,22,5,11.959,530.28870332094,5.577428,8.4780026,52.8789387,-3.131716,0,0,181.1, -7.8, 0.7,0,0,1274,1024,1024,1024,38,0,0,0,189,-89.9,0,98,3.973,3.992,4.005,0,0,0,6.79,71.42,528.97636732094,4.265092,6,P-GPS,
15500,2025-03-04 13:44:44,51.258482057425,-0.0460053325754854,4.265092,,,528.97636732094,10.170604,3.35541,53.337928216,64.375986312,22,5,11.959,530.28870332094,5.577428,8.4780026,53.337928216,-3.35541,0,0,181.2, -7.9, 1,0,0,1024,1024,1024,1024,0,0,0,0,189,-90,0,98,3.973,3.992,4.005,0,0,0,6.79,71.42,528.97636732094,4.265092,6,P-GPS,
15600,2025-03-04 13:44:44,51.2584807568546,-0.0460055071398631,4.265092,,,528.97636732094,10.170604,3.35541,53.803479412,64.852036196,22,5,11.959,530.28870332094,5.577428,8.4780026,53.803479412,-3.35541,0,0,181.4, -2.7, 1.1,0,0,1024,1024,1024,1024,0,0,0,0,189,-90,0,98,3.973,3.992,4.005,0,0,0,6.79,71.42,528.97636732094,4.265092,6,P-GPS,
15700,2025-03-04 13:44:44,51.258479354271,-0.0460054500491345,4.265092,,,528.97636732094,10.170604,3.35541,54.290027984,65.36417532,22,5,11.959,530.28870332094,5.577428,8.4780026,54.290027984,-3.35541,0,0,181.6, 8.7, 1,0,0,1024,1024,1024,1024,0,0,0,0,189,-90,0,98,3.973,3.992,4.005,0,0,0,6.79,71.42,528.97636732094,4.265092,6,P-GPS,
15800,2025-03-04 13:44:44,51.2584782072133,-0.0460051273678243,4.265092,,,528.97636732094,10.170604,2.684328,54.669949256,65.7890441,22,5,11.959,530.28870332094,5.577428,8.4780026,54.669949256,-2.684328,0,0,181.7, 12.3, 1.6,0,0,1024,1024,1024,1024,0,0,0,0,189,-89.9,0,98,3.973,3.992,4.005,0,0,0,6.79,71.42,528.97636732094,4.265092,6,P-GPS,
15900,2025-03-04 13:44:44,51.2584771759528,-0.0460049737410205,4.265092,,,528.97636732094,10.498688,2.23694,55.020999136,66.166996868,22,5,11.965,530.28870332094,5.577428,8.4780026,55.020999136,-2.23694,0,0,181.9, 11.5, 2.1,0,0,1024,1024,1071,1024,0,0,7,0,189,-90,0,98,3.972,3.992,4.004,0,0,0,6.648,71.6,528.97636732094,4.265092,6,P-GPS,
16000,2025-03-04 13:44:44,51.2584765599414,-0.0460049999763383,4.265092,,,528.97636732094,10.498688,1.789552,55.238518828,66.391734408,22,5,11.965,530.28870332094,5.577428,8.4780026,55.238518828,-1.789552,0,0,181.8, 9.1, 1.9,0,0,1024,1024,1071,1024,0,0,7,0,189,-89.9,0,98,3.972,3.992,4.004,0,0,0,6.648,71.6,528.97636732094,4.265092,6,P-GPS,
16100,2025-03-04 13:44:44,51.2584759453135,-0.0460048762330369,4.265092,,,528.97636732094,10.826772,1.342164,55.445867916,66.617784284,22,5,11.965,530.28870332094,5.577428,8.4780026,55.445867916,-1.342164,0,-0.223694,181.7, 7.4, 1.8,0,0,1024,1024,1024,1024,0,0,0,0,189,-90,0,98,3.972,3.992,4.004,0,0,0,6.648,71.6,528.97636732094,4.265092,6,P-GPS,
16200,2025-03-04 13:44:44,51.2584750803084,-0.0460048856032859,4.265092,,,528.97636732094,11.154856,0.894776,55.7496737,66.933401092,22,5,11.965,530.28870332094,5.577428,8.4780026,55.7496737,-0.894776,0,0,181.8, 6.1, 1.9,0,0,1024,1024,1024,1684,0,0,0,100,189,-90,0,98,3.972,3.992,4.004,0,0,0,6.648,71.6,528.97636732094,4.265092,6,P-GPS,
16300,2025-03-04 13:44:44,51.2584746944007,-0.0460047823595205,4.265092,,,528.97636732094,11.48294,0.671082,55.878610712,67.076117632,22,5,11.965,530.28870332094,5.577428,8.4780026,55.878610712,-0.671082,0,0,183.1, 4.8, 2,0,0,1024,1024,1024,1684,0,0,0,100,189.9,-89.9,0,98,3.972,3.992,4.004,0,0,0,6.648,71.6,528.97636732094,4.265092,6,P-GPS,
16400,2025-03-04 13:44:44,51.2584739942976,-0.0460047570345471,4.265092,,,528.97636732094,11.48294,0.447388,56.122705208,67.331695068,22,5,11.965,530.28870332094,5.577428,8.4780026,56.122705208,-0.447388,0,0,185.3, 3.8, 2.1,0,0,1024,1024,1024,1684,0,0,0,100,193.6,-90,0,98,3.972,3.992,4.004,0,0,0,6.648,71.6,528.97636732094,4.265092,6,P-GPS,
16500,2025-03-04 13:44:45,51.2584737488594,-0.046004669889254,4.265092,,,528.97636732094,11.48294,0.447388,56.203085788,67.423230504,22,5,11.965,530.28870332094,5.577428,8.4780026,56.203085788,-0.447388,0,0,189.3, 2.8, 2.3,0,0,1024,1024,1024,1684,0,0,0,100,199,-89.9,0,98,3.972,3.992,4.004,0,0,0,6.648,71.6,528.97636732094,4.265092,6,P-GPS,
16600,2025-03-04 13:44:45,51.2584731339658,-0.0460047444405158,4.265092,,,528.97636732094,11.48294,0.223694,56.423558236,67.648296128,22,5,11.965,530.28870332094,5.577428,8.4780026,56.423558236,-0.223694,0,0,194.5, 2.1, 2.5,0,0,1024,1024,1024,1684,0,0,0,100,204.8,-89.9,0,98,3.972,3.992,4.004,0,0,0,6.648,71.6,528.97636732094,4.265092,6,P-GPS,
16700,2025-03-04 13:44:45,51.258472966588,-0.046004690785798,4.265092,,,528.97636732094,11.48294,0,56.479004432,67.710632088,22,5,11.965,530.28870332094,5.577428,8.4780026,56.479004432,0,0,0,200.3, 1.3, 2.6,0,0,1024,1024,1024,1684,0,0,0,100,210.7,-89.9,0,98,3.972,3.992,4.004,0,0,0,6.648,71.6,528.97636732094,4.265092,6,P-GPS,
16800,2025-03-04 13:44:45,51.2584727637738,-0.0460045161666732,4.265092,,,528.97636732094,11.48294,0,56.539371888,67.794621592,22,5,11.965,530.28870332094,5.577428,8.4780026,56.539371888,0,0,0,206.1, 0.7, 2.4,0,0,1024,1024,1024,1684,0,0,0,100,216.7,-89.9,0,98,3.972,3.992,4.004,0,0,0,6.648,71.6,528.97636732094,4.265092,6,P-GPS,
16900,2025-03-04 13:44:45,51.2584726684641,-0.0460044743736357,4.265092,,,528.97636732094,11.48294,0,56.570211784,67.830710832,22,5,11.856,530.28870332094,5.577428,8.4780026,56.570211784,0,0,0,212.2, 0, 2,0,0,1024,1024,1024,1684,0,0,0,100,222.7,-90,0,98,3.958,3.98,3.994,0,0,0,6.897,71.6,528.97636732094,4.265092,6,P-GPS,
17000,2025-03-04 13:44:45,51.2584726908148,-0.0460045157149704,4.265092,,,528.97636732094,11.48294,0,56.56496244,67.843178024,22,5,11.856,530.28870332094,5.577428,8.4780026,56.570211784,0,0,0,218, -0.7, 1.4,0,0,1024,1024,1024,1684,0,0,0,100,228.7,-89.9,0,98,3.958,3.98,3.994,0,0,0,6.897,71.6,528.97636732094,4.265092,6,P-GPS,
17100,2025-03-04 13:44:45,51.2584726468116,-0.046004514161271,4.265092,,,528.97636732094,11.154856,0,56.580382388,67.85925414,22,5,11.856,530.28870332094,5.577428,8.4780026,56.580382388,0,0,0,223.9, -1.2, 0.2,0,0,1024,1024,1024,1684,0,0,0,100,234.7,-90,0,98,3.958,3.98,3.994,0,0,0,6.897,71.6,528.97636732094,4.265092,6,P-GPS,
17200,2025-03-04 13:44:45,51.2584728051514,-0.0460046404097169,4.265092,,,528.97636732094,11.154856,0,56.532482124,67.923886688,22,5,11.856,530.28870332094,5.577428,8.4780026,56.580382388,0,0,0,229.6, -1.1, -0.9,0,0,1024,1024,1024,1684,0,0,0,100,240.7,-90,0,98,3.958,3.98,3.994,0,0,0,6.897,71.6,528.97636732094,4.265092,6,P-GPS,
17300,2025-03-04 13:44:45,51.2584727809674,-0.0460046649133398,3.937008,,,528.64828332094,11.154856,0,56.542652728,67.934385376,22,5,11.856,530.28870332094,5.577428,8.4780026,56.580382388,0,0,0,235, -0.9, -1.8,0,0,1097,1024,1024,1469,11,0,0,67,246.7,-89.9,0,98,3.958,3.98,3.994,0,0,0,6.897,71.6,528.64828332094,3.937008,6,P-GPS,
